[
    {
        "address": "Regent Street City Centre",
        "area": "centre",
        "food": "italian",
        "id": "19210",
        "introduction": "Pizza hut is a large chain with restaurants nationwide offering convenience pizzas pasta and salads to eat in or take away",
        "location": [
            52.20103,
            0.126023
        ],
        "name": "pizza hut city centre",
        "phone": "01223323737",
        "postcode": "cb21ab",
        "pricerange": "cheap",
        "type": "restaurant"
    },
    {
        "address": "Finders Corner Newmarket Road",
        "area": "east",
        "food": "international",
        "id": "30650",
        "introduction": "",
        "location": [
            52.21768,
            0.224907
        ],
        "name": "the missing sock",
        "phone": "01223812660",
        "postcode": "cb259aq",
        "pricerange": "cheap",
        "signature": "african babooti",
        "type": "restaurant"
    },
    {
        "address": "106 Regent Street City Centre",
        "area": "centre",
        "food": "indian",
        "id": "19214",
        "introduction": "curry garden serves traditional indian and bangladeshi cuisine cooked with fresh produce delivered every day",
        "location": [
            52.200187,
            0.126407
        ],
        "name": "curry garden",
        "phone": "01223302330",
        "postcode": "cb21dp",
        "pricerange": "expensive",
        "type": "restaurant"
    },
    {
        "address": "82 Cherry Hinton Road Cherry Hinton",
        "area": "south",
        "food": "chinese",
        "id": "19192",
        "location": [
            52.188528,
            0.140627
        ],
        "name": "the good luck chinese food takeaway",
        "phone": "01223244149",
        "postcode": "cb17ag",
        "pricerange": "expensive",
        "type": "restaurant"
    },
    {
        "address": "G4 Cambridge Leisure Park Clifton Way Cherry Hinton",
        "area": "south",
        "food": "italian",
        "id": "19196",
        "introduction": "pizza hut is a large chain with restaurants nationwide offering convenience pizzas pasta and salads to eat in or take away",
        "location": [
            52.190176,
            0.13699
        ],
        "name": "pizza hut cherry hinton",
        "phone": "01223323737",
        "postcode": "cb17dy",
        "pricerange": "moderate",
        "type": "restaurant"
    },
    {
        "address": "64 Cherry Hinton Road Cherry Hinton",
        "area": "south",
        "food": "indian",
        "id": "19191",
        "introduction": "taj tandoori serves a variety of indian dishes to eat in or take away catering for private parties of up to 50 guests is available upon request",
        "location": [
            52.188747,
            0.138941
        ],
        "name": "taj tandoori",
        "phone": "01223412299",
        "postcode": "cb17aa",
        "pricerange": "expensive",
        "type": "restaurant"
    },
    {
        "address": "152 - 154 Hills Road",
        "area": "south",
        "food": "modern european",
        "id": "14731",
        "introduction": "",
        "location": [
            52.18889,
            0.13589
        ],
        "name": "restaurant alimentum",
        "phone": "01223413000",
        "postcode": "cb28pb",
        "pricerange": "moderate",
        "signature": "slowroast sirloin of beef red onion celeriac and garlic",
        "type": "restaurant"
    },
    {
        "address": "529 Newmarket Road Fen Ditton",
        "area": "east",
        "food": "chinese",
        "id": "19273",
        "introduction": "yu garden serves authentic chinese cuisine",
        "location": [
            52.212992,
            0.157569
        ],
        "name": "yu garden",
        "phone": "01223248882",
        "postcode": "cb58pa",
        "pricerange": "expensive",
        "type": "restaurant"
    },
    {
        "address": "Market Hill City Centre",
        "area": "centre",
        "food": "italian",
        "id": "19240",
        "location": [
            52.205442,
            0.119706
        ],
        "name": "stazione restaurant and coffee bar",
        "phone": "01223352607",
        "postcode": "cb23nj",
        "pricerange": "expensive",
        "type": "restaurant"
    },
    {
        "address": "451 Newmarket Road Fen Ditton",
        "area": "east",
        "food": "indian",
        "id": "19270",
        "introduction": "curry prince is a neighbourhood indian restaurant serving authentic cuisine",
        "location": [
            52.213072,
            0.149771
        ],
        "name": "curry prince",
        "phone": "01223566388",
        "postcode": "cb58jj",
        "pricerange": "moderate",
        "type": "restaurant"
    },
    {
        "address": "Regent Street City Centre",
        "area": "centre",
        "food": "chinese",
        "id": "19212",
        "introduction": "charlie chan serves a variety of popular chinese dishes at their restaurant",
        "location": [
            52.201743,
            0.124843
        ],
        "name": "charlie chan",
        "phone": "01223361763",
        "postcode": "cb21db",
        "pricerange": "cheap",
        "type": "restaurant"
    },
    {
        "address": "Free School Lane City Centre",
        "area": "centre",
        "food": "european",
        "id": "19245",
        "introduction": "eraina serves a variety of drinks and european dishes with influences from france spain italy and greece catering for vegetarians is also provided",
        "location": [
            52.203708,
            0.119082
        ],
        "name": "eraina",
        "phone": "01223368786",
        "postcode": "cb23rh",
        "pricerange": "expensive",
        "type": "restaurant"
    },
    {
        "address": "Regent Street City Centre",
        "area": "centre",
        "food": "italian",
        "id": "19213",
        "introduction": "the simple menu and kitchen concept at pizza express has retained its freshly made ideal and you can still watch your pizza being prepared for you",
        "location": [
            52.201743,
            0.124843
        ],
        "name": "pizza express",
        "phone": "01223324033",
        "postcode": "cb21db",
        "pricerange": "moderate",
        "type": "restaurant"
    },
    {
        "address": "De Vere University Arms Regent Street City Centre",
        "area": "centre",
        "food": "british",
        "id": "19211",
        "introduction": "adjoining the de vere university arms restaurant one seven is located at the forefront of regent street, and provides a birds eye view to take in the hustle and bustle of the busy city. Enjoy beautifully created food which is always complemented by a fine selection of wines in a truly relaxing and contemporary atmosphere",
        "location": [
            52.20103,
            0.126023
        ],
        "name": "restaurant one seven",
        "phone": "01223337766",
        "postcode": "cb21ab",
        "pricerange": "moderate",
        "type": "restaurant"
    },
    {
        "address": "12 Bridge Street City Centre",
        "area": "centre",
        "food": "italian",
        "id": "19229",
        "introduction": "ask is a leading name in the uk casual dining market with over 100 restaurants across the uk. ask is the perfect place to relax and enjoy mouthwatering risottos an extended range of hearty al forno dishes and all your favourite pastas pizzas and salads",
        "location": [
            52.209028,
            0.118296
        ],
        "name": "ask restaurant",
        "phone": "01223364917",
        "postcode": "cb21uf",
        "pricerange": "cheap",
        "type": "restaurant"
    },
    {
        "address": "11 Peas Hill City Centre",
        "area": "centre",
        "food": "chinese",
        "id": "19242",
        "introduction": "jinling noodle bar serves a wide range of chinese and shanghai dishes reflecting many different flavours and ingredients",
        "location": [
            52.204453,
            0.118693
        ],
        "name": "jinling noodle bar",
        "phone": "01223566188",
        "postcode": "cb23pp",
        "pricerange": "moderate",
        "type": "restaurant"
    },
    {
        "address": "83 Regent Street",
        "area": "centre",
        "food": "modern european",
        "id": "3697",
        "introduction": "de luca cucina bar in the heart of cambridge is a stylish spot to enjoy food, wine, cocktails and coffee all in a vibrant atmosphere. The cocktail bar at the front is perfect for coffee and light meals in the day and cocktails in the evening. An open kitchen provides real excitement with head chef darren kiegher and his team preparing simply delicious italian food using locally sourced ingredients.",
        "location": [
            52.2002,
            0.1268
        ],
        "name": "de luca cucina and bar",
        "phone": "01223356666",
        "postcode": "cb21aw",
        "pricerange": "moderate",
        "signature": "roasted barbary duck breast served with sweet potato wedges and mange tout with a red wine sauce",
        "type": "restaurant"
    },
    {
        "address": "2 Sturton Street City Centre",
        "area": "centre",
        "food": "gastropub",
        "id": "19188",
        "introduction": "the backstreet bistro is a gastropub with a separate bar area serving a couple of good real ales and a dining room serving modern european food. There is a decked area to sit out in during the summer months",
        "location": [
            52.202449,
            0.141062
        ],
        "name": "backstreet bistro",
        "phone": "01223306306",
        "postcode": "cb12qa",
        "pricerange": "expensive",
        "type": "restaurant"
    },
    {
        "address": "68 Histon Road Chesterton",
        "area": "west",
        "food": "indian",
        "id": "19266",
        "introduction": "tandoori palace serve a variety of indian and bangladeshi dishes and can cater for private parties of up to 110 guests upon request",
        "location": [
            52.215486,
            0.111167
        ],
        "name": "tandoori palace",
        "phone": "01223506055",
        "postcode": "cb43le",
        "pricerange": "expensive",
        "type": "restaurant"
    },
    {
        "address": "Doubletree by Hilton Cambridge Granta Place Mill Lane",
        "area": "centre",
        "food": "modern european",
        "id": "10347",
        "introduction": "",
        "location": [
            52.20025,
            0.11659
        ],
        "name": "riverside brasserie",
        "phone": "01223259988",
        "postcode": "cb21rt",
        "pricerange": "moderate",
        "type": "restaurant"
    },
    {
        "address": "74 Mill Road City Centre",
        "area": "centre",
        "food": "indian",
        "id": "19180",
        "introduction": "kohinoor serves a variety of indian and vegetarian dishes at their restaurant a takeaway and delivery service is also available",
        "location": [
            52.200422,
            0.135784
        ],
        "name": "kohinoor",
        "phone": "01223323639",
        "postcode": "cb12as",
        "pricerange": "cheap",
        "type": "restaurant"
    },
    {
        "address": "2G Cambridge Leisure Park Cherry Hinton Road Cherry Hinton",
        "area": "south",
        "food": "mexican",
        "id": "19194",
        "introduction": "chiquito is a chain of inexpensive tex mex restaurants predominantly aimed at tourists. They serve a variety of mexican and north of the border food as well as a range of cocktails",
        "location": [
            52.190176,
            0.13699
        ],
        "name": "chiquito restaurant bar",
        "phone": "01223400170",
        "postcode": "cb17dy",
        "pricerange": "expensive",
        "type": "restaurant"
    },
    {
        "address": "21 - 24 Northampton Road",
        "area": "west",
        "food": "italian",
        "id": "12700",
        "introduction": "",
        "location": [
            52.21032,
            0.11367
        ],
        "name": "prezzo",
        "phone": "01799521260",
        "postcode": "cb30ad",
        "pricerange": "moderate",
        "type": "restaurant"
    },
    {
        "address": "88 Mill Road City Centre",
        "area": "centre",
        "food": "chinese",
        "id": "19185",
        "introduction": "rice house serve a variety of popular chinese dishes at their restaurant",
        "location": [
            52.199332,
            0.138395
        ],
        "name": "rice house",
        "phone": "01223367755",
        "postcode": "cb12bd",
        "pricerange": "cheap",
        "type": "restaurant"
    },
    {
        "address": "59 Hills Road City Centre",
        "area": "centre",
        "food": "lebanese",
        "id": "19221",
        "location": [
            52.195416,
            0.13114
        ],
        "name": "ali baba",
        "phone": "01462432565",
        "postcode": "cb21nt",
        "pricerange": "moderate",
        "type": "restaurant"
    },
    {
        "address": "35 Saint Andrews Street City Centre",
        "area": "centre",
        "food": "international",
        "id": "19235",
        "introduction": "the varsity restaurant serves a variety of international and vegetarian dishes and can cater for private parties of up to 40 guests upon request",
        "location": [
            52.202793,
            0.123488
        ],
        "name": "the varsity restaurant",
        "phone": "01223356060",
        "postcode": "cb23ar",
        "pricerange": "moderate",
        "type": "restaurant"
    },
    {
        "address": "40270 King Street City Centre",
        "area": "centre",
        "food": "modern european",
        "id": "19177",
        "introduction": "darrys cookhouse and wine shop is an award winning drinking and dining restaurant and bar in the centre of cambridge",
        "location": [
            52.207312,
            0.124201
        ],
        "name": "darrys cookhouse and wine shop",
        "phone": "01223505015",
        "postcode": "cb11ln",
        "pricerange": "expensive",
        "type": "restaurant"
    },
    {
        "address": "Mill Road City Centre",
        "area": "centre",
        "food": "indian",
        "id": "19182",
        "introduction": "the golden curry serves a variety of authentic indian dishes at their fully licensed restaurant",
        "location": [
            52.199289,
            0.13974
        ],
        "name": "the golden curry",
        "phone": "01223329432",
        "postcode": "cb12az",
        "pricerange": "expensive",
        "type": "restaurant"
    },
    {
        "address": "71 Castle Street City Centre",
        "area": "west",
        "food": "indian",
        "id": "19249",
        "introduction": "cocum specialises in south indian cuisine using spices meat and vegetables from the kerala region there is also a take away option",
        "location": [
            52.212444,
            0.112823
        ],
        "name": "cocum",
        "phone": "01223366668",
        "postcode": "cb30ah",
        "pricerange": "expensive",
        "type": "restaurant"
    },
    {
        "address": "St. Michael's Church Trinity Street City Centre",
        "area": "centre",
        "food": "european",
        "id": "19227",
        "introduction": "digby trout is a chain of restaurants that are located in many of london's premier tourist attractions. they serve modern european cuisine and are open for lunch and dinner. situated in st michaels church, michaelhouse cafe serves coffee sandwiches and lunch from a regularly changing menu",
        "location": [
            52.20608,
            0.118215
        ],
        "name": "michaelhouse cafe",
        "phone": "01223309147",
        "postcode": "cb21su",
        "pricerange": "expensive",
        "type": "restaurant"
    },
    {
        "address": "37 Newnham Road Newnham",
        "area": "west",
        "food": "indian",
        "id": "19255",
        "introduction": "the rice boat serves an authentic kind of indian cuisine that originates from the villages of kerala where the spice trade originated",
        "location": [
            52.199012,
            0.113196
        ],
        "name": "rice boat",
        "phone": "01223302800",
        "postcode": "cb39ey",
        "pricerange": "expensive",
        "type": "restaurant"
    },
    {
        "address": "15 - 19 Trumpington Street",
        "area": "centre",
        "food": "european",
        "id": "4607",
        "introduction": "",
        "location": [
            52.19934,
            0.12146
        ],
        "name": "hotel du vin and bistro",
        "phone": "01223227330",
        "postcode": "cb21qa",
        "pricerange": "moderate",
        "signature": "",
        "type": "restaurant"
    },
    {
        "address": "41518 Castle Street City Centre",
        "area": "west",
        "food": "indian",
        "id": "19250",
        "introduction": "maharajah tandoori restaurant serve a variety of indian and tandoori dishes at their restaurant catering for private parties of up to 40 guests is available upon request",
        "location": [
            52.212444,
            0.112823
        ],
        "name": "maharajah tandoori restaurant",
        "phone": "01223358399",
        "postcode": "cb30ah",
        "pricerange": "expensive",
        "type": "restaurant"
    },
    {
        "address": "Crowne Plaza Hotel 20 Downing Street",
        "area": "centre",
        "food": "international",
        "id": "14742",
        "introduction": "",
        "location": [
            52.20342,
            0.12171
        ],
        "name": "bloomsbury restaurant",
        "phone": "08719429180",
        "postcode": "cb23dt",
        "pricerange": "moderate",
        "signature": "coconut and red chilli monkfish",
        "type": "restaurant"
    },
    {
        "address": "17 Magdalene Street City Centre",
        "area": "west",
        "food": "vietnamese",
        "id": "19248",
        "introduction": "thanh binh serve a variety of vietnamese dishes as well as selling an assortment of tea and coffees",
        "location": [
            52.210226,
            0.115646
        ],
        "name": "thanh binh",
        "phone": "01223362456",
        "postcode": "cb30af",
        "pricerange": "cheap",
        "type": "restaurant"
    },
    {
        "address": "14 -16 Bridge Street",
        "area": "centre",
        "food": "spanish",
        "id": "12566",
        "introduction": "la tasca is a spanish tapas restaurant and bar offering over 30 tapas dishes",
        "location": [
            52.20903,
            0.1183
        ],
        "name": "la tasca",
        "phone": "01223464630",
        "postcode": "cb21uf",
        "pricerange": "moderate",
        "type": "restaurant"
    },
    {
        "address": "20 Milton Road Chesterton",
        "area": "north",
        "food": "italian",
        "id": "19259",
        "introduction": "da Vinci pizzeria serve an extensive range of pizza and italian dishes as well as some vegetarian options a takeaway and delivery service is also available",
        "location": [
            52.215311,
            0.12593
        ],
        "name": "da vinci pizzeria",
        "phone": "01223351707",
        "postcode": "cb41jy",
        "pricerange": "cheap",
        "type": "restaurant"
    },
    {
        "address": "22 Chesterton Road Chesterton",
        "area": "north",
        "food": "french",
        "id": "19264",
        "location": [
            52.213742,
            0.1242
        ],
        "name": "restaurant two two",
        "phone": "01223351880",
        "postcode": "cb43ax",
        "pricerange": "expensive",
        "type": "restaurant"
    },
    {
        "address": "12 St. Johns Street City Centre",
        "area": "centre",
        "food": "chinese",
        "id": "19228",
        "introduction": "ugly duckling serves a variety of chinese dishes to eat in or take away they also offer 10 percent discount on takeaway orders",
        "location": [
            52.208055,
            0.118397
        ],
        "name": "ugly duckling",
        "postcode": "cb21tw",
        "pricerange": "expensive",
        "type": "restaurant"
    },
    {
        "address": "36 Saint Andrews Street",
        "area": "centre",
        "food": "japanese",
        "id": "12638",
        "introduction": "",
        "location": [
            52.203,
            0.12375
        ],
        "name": "wagamama",
        "phone": "01223462354",
        "postcode": "cb23ar",
        "pricerange": "expensive",
        "type": "restaurant"
    },
    {
        "address": "12 Norfolk Street City Centre",
        "area": "centre",
        "food": "chinese",
        "id": "19186",
        "introduction": "lan hong house serves great value home cooked authentic chinese food with over two five dishes available from the buffet",
        "location": [
            52.204609,
            0.137976
        ],
        "name": "lan hong house",
        "phone": "01223350420",
        "postcode": "cb12lf",
        "pricerange": "moderate",
        "type": "restaurant"
    },
    {
        "address": "Cambridge Leisure Park Clifton Way",
        "area": "south",
        "food": "portuguese",
        "id": "12238",
        "introduction": "It's Nandos",
        "location": [
            52.19017,
            0.13699
        ],
        "name": "nandos",
        "phone": "01223327908",
        "postcode": "cb17dy",
        "pricerange": "cheap",
        "type": "restaurant"
    },
    {
        "address": "6 Lensfield Road",
        "area": "centre",
        "food": "british",
        "id": "13071",
        "introduction": "",
        "location": [
            52.1987,
            0.12578
        ],
        "name": "the oak bistro",
        "phone": "01223323361",
        "postcode": "cb21eg",
        "pricerange": "moderate",
        "signature": "chargrilled rib eye steak with truffle butter mixed salad and fries",
        "type": "restaurant"
    },
    {
        "address": "4 Kings Parade City Centre",
        "area": "centre",
        "food": "british",
        "id": "19226",
        "introduction": "the copper kettle serve a variety of english dishes at their restaurant including full english breakfasts lunches, roast dinners and baked potatoes. a takeaway menu is also provided",
        "location": [
            52.204387,
            0.117841
        ],
        "name": "the copper kettle",
        "phone": "01223365068",
        "postcode": "cb21sj",
        "pricerange": "moderate",
        "type": "restaurant"
    },
    {
        "address": "Cambridge Leisure Park Clifton Way Cherry Hinton",
        "area": "south",
        "food": "chinese",
        "id": "19197",
        "location": [
            52.190176,
            0.13699
        ],
        "name": "the lucky star",
        "phone": "01223244277",
        "postcode": "cb17dy",
        "pricerange": "cheap",
        "type": "restaurant"
    },
    {
        "address": "51 Trumpington Street City Centre",
        "area": "centre",
        "food": "british",
        "id": "19224",
        "introduction": "fitzbillies restaurant serves a variety of bistro style lunches, anglo-european a la carte evening meals, as well as teas coffees and cakes throughout the day. catering for private parties is available upon request",
        "location": [
            52.202598,
            0.118342
        ],
        "name": "fitzbillies restaurant",
        "phone": "01223352500",
        "postcode": "cb21rg",
        "pricerange": "expensive",
        "type": "restaurant"
    },
    {
        "address": "108 Regent Street City Centre",
        "area": "centre",
        "food": "korean",
        "id": "19216",
        "introduction": "little seoul offer a variety of korean cuisine for lunch and dinner",
        "location": [
            52.200187,
            0.126407
        ],
        "name": "little seoul",
        "phone": "01223308681",
        "postcode": "cb21dp",
        "pricerange": "expensive",
        "type": "restaurant"
    },
    {
        "address": "196 Mill Road City Centre",
        "area": "centre",
        "food": "turkish",
        "id": "19189",
        "introduction": "meze is a restaurant and bar that serves tasty and fresh turkish cuisine set in an informal relaxed atmosphere the bar area also serves a wide range of beers wines and spirits",
        "location": [
            52.197349,
            0.145075
        ],
        "name": "meze bar",
        "postcode": "cb13nf",
        "pricerange": "expensive",
        "type": "restaurant"
    },
    {
        "address": "40210 Millers Yard City Centre",
        "area": "centre",
        "food": "asian oriental",
        "id": "19225",
        "introduction": "dojo noodle bar serves a variety of japanese chinese vietnamese korean and malaysian dishes to eat in or take away sister restaurant to touzai",
        "location": [
            52.201423,
            0.116661
        ],
        "name": "dojo noodle bar",
        "phone": "01223363471",
        "postcode": "cb21rq",
        "pricerange": "cheap",
        "type": "restaurant"
    },
    {
        "address": "15 Magdalene Street City Centre",
        "area": "west",
        "food": "italian",
        "id": "19247",
        "introduction": "la margherita serve a variety of italian and vegetarian dishes at their restaurant",
        "location": [
            52.210226,
            0.115646
        ],
        "name": "la margherita",
        "phone": "01223315232",
        "postcode": "cb30af",
        "pricerange": "cheap",
        "type": "restaurant"
    },
    {
        "address": "40428 King Street City Centre",
        "area": "centre",
        "food": "asian oriental",
        "id": "19175",
        "introduction": "yippee noodle bar serves a variety of oriental and vegetarian dishes at their restaurant they also have a bar area and offer a take away service",
        "location": [
            52.207446,
            0.122788
        ],
        "name": "yippee noodle bar",
        "phone": "01223518111",
        "postcode": "cb11lh",
        "pricerange": "moderate",
        "type": "restaurant"
    },
    {
        "address": "7 Milton Road Chesterton",
        "area": "north",
        "food": "indian",
        "id": "19263",
        "location": [
            52.215157,
            0.125015
        ],
        "name": "the nirala",
        "phone": "01223360966",
        "postcode": "cb41uy",
        "pricerange": "moderate",
        "type": "restaurant"
    },
    {
        "address": "183 East Road City Centre",
        "area": "centre",
        "food": "british",
        "id": "19171",
        "introduction": "cotto is a restaurant cafe and bakery all rolled in to one. The restaurant upstairs is open for dinner from wednesday to saturday consisting of one menu of between three to five dishes tailored to the day the cafe and bakery offer cakes and other delicacies",
        "location": [
            52.204703,
            0.133238
        ],
        "name": "cotto",
        "phone": "01223302010",
        "postcode": "cb11bg",
        "pricerange": "moderate",
        "type": "restaurant"
    },
    {
        "address": "21 - 24 Northampton Street",
        "area": "west",
        "food": "british",
        "id": "14810",
        "introduction": "",
        "location": [
            52.21031,
            0.11381
        ],
        "name": "saint johns chop house",
        "phone": "01223353110",
        "postcode": "cb30ad",
        "pricerange": "moderate",
        "signature": "barnsley chop braised potatoes roast celeriac red cabbage and port sauce",
        "type": "restaurant"
    },
    {
        "address": "Cambridge Retail Park Newmarket Road Fen Ditton",
        "area": "east",
        "food": "italian",
        "id": "19275",
        "introduction": "pizza hut is a large chain with restaurants nationwide offering convenience pizzas pasta and salads to eat in or take away",
        "location": [
            52.209742,
            0.146975
        ],
        "name": "pizza hut fen ditton",
        "phone": "01223323737",
        "postcode": "cb58wr",
        "pricerange": "moderate",
        "type": "restaurant"
    },
    {
        "address": "12 Lensfield Road City Centre",
        "area": "centre",
        "food": "chinese",
        "id": "19219",
        "location": [
            52.198696,
            0.12578
        ],
        "name": "golden house",
        "phone": "01842753771",
        "postcode": "cb21eg",
        "pricerange": "cheap",
        "type": "restaurant"
    },
    {
        "address": "86 Regent Street City Centre",
        "area": "centre",
        "food": "asian oriental",
        "id": "19215",
        "introduction": "j restaurant offers a wide variety of sushi noodles and dim sum to eat in or takeaway a home delivery service is also available",
        "location": [
            52.200187,
            0.126407
        ],
        "name": "j restaurant",
        "phone": "01223307581",
        "postcode": "cb21dp",
        "pricerange": "cheap",
        "type": "restaurant"
    },
    {
        "address": "33 Bridge Street",
        "area": "centre",
        "food": "european",
        "id": "6780",
        "introduction": "",
        "location": [
            52.20951,
            0.11669
        ],
        "name": "galleria",
        "phone": "01223362054",
        "postcode": "cb21uw",
        "pricerange": "moderate",
        "signature": "poached fillets of monkfish in lemongrass with sweet red chilli cream sauce and tiger prawns with leeks and mushrooms served with rice",
        "type": "restaurant"
    },
    {
        "address": "Corn Exchange Street",
        "area": "centre",
        "food": "gastropub",
        "id": "31390",
        "introduction": "",
        "location": [
            52.204424,
            0.12046
        ],
        "name": "the cow pizza kitchen and bar",
        "phone": "01223308871",
        "postcode": "cb23qf",
        "pricerange": "moderate",
        "signature": "wasabi spiked hamburger",
        "type": "restaurant"
    },
    {
        "address": "100 Mill Road City Centre",
        "area": "centre",
        "food": "african",
        "id": "19183",
        "introduction": "bedouin serves algerian cuisine",
        "location": [
            52.199332,
            0.138395
        ],
        "name": "bedouin",
        "phone": "01223367660",
        "postcode": "cb12bd",
        "pricerange": "expensive",
        "type": "restaurant"
    },
    {
        "address": "2 Rose Crescent City Centre",
        "area": "centre",
        "food": "mediterranean",
        "id": "19238",
        "introduction": "the gardenia serves a variety of authentic greek and mediterranean dishes at their restaurant catering for private parties of up to two five guests is available upon request",
        "location": [
            52.206098,
            0.118713
        ],
        "name": "the gardenia",
        "phone": "01223356354",
        "postcode": "cb23ll",
        "pricerange": "cheap",
        "type": "restaurant"
    },
    {
        "address": "47-53 Regent Street",
        "area": "centre",
        "food": "italian",
        "id": "29652",
        "introduction": "",
        "location": [
            52.201116,
            0.125712
        ],
        "name": "zizzi cambridge",
        "phone": "01223365599",
        "postcode": "cb21ab",
        "pricerange": "cheap",
        "signature": "piccante rustica pizza, a spicy sausage salami mascarpone and roquito chilli",
        "type": "restaurant"
    },
    {
        "address": "Newmarket Road Fen Ditton",
        "area": "east",
        "food": "indian",
        "id": "19272",
        "introduction": "pipasha restaurant serves a variety of indian dishes to eat in or take away a delivery service is also available",
        "location": [
            52.212992,
            0.157569
        ],
        "name": "pipasha restaurant",
        "phone": "01223577786",
        "postcode": "cb58pa",
        "pricerange": "expensive",
        "type": "restaurant"
    },
    {
        "address": "33-34 Saint Andrews Street",
        "area": "centre",
        "food": "portuguese",
        "id": "12237",
        "introduction": "",
        "location": [
            52.203,
            0.12375
        ],
        "name": "nandos city centre",
        "phone": "01223327908",
        "postcode": "cb23ar",
        "pricerange": "cheap",
        "type": "restaurant"
    },
    {
        "address": "Victoria Avenue Chesterton",
        "area": "north",
        "food": "indian",
        "id": "19257",
        "location": [
            52.213853,
            0.125509
        ],
        "name": "royal spice",
        "phone": "01733553355",
        "postcode": "cb41eh",
        "pricerange": "cheap",
        "type": "restaurant"
    },
    {
        "address": "Milton Road Chesterton",
        "area": "north",
        "food": "chinese",
        "id": "19260",
        "introduction": "A unique treat for all lovers of Chinese cuisine. From the Spice Islands to the food streets of Beijing and the finest ocean catch.",
        "location": [
            52.215311,
            0.12593
        ],
        "name": "hakka",
        "phone": "01223568988",
        "postcode": "cb41jy",
        "pricerange": "expensive",
        "type": "restaurant"
    },
    {
        "address": "4 - 6 Rose Crescent",
        "area": "centre",
        "food": "spanish",
        "id": "19237",
        "introduction": "",
        "location": [
            52.206098,
            0.118713
        ],
        "name": "la raza",
        "phone": "01223464550",
        "postcode": "cb23ll",
        "pricerange": "cheap",
        "signature": "seafood paella",
        "type": "restaurant"
    },
    {
        "address": "72 Regent Street City Centre",
        "area": "centre",
        "food": "indian",
        "id": "19218",
        "introduction": "the gandhi serves a variety of indian and bangladeshi dishes at their restaurant to eat in or take away. Catering for private parties of up to 140 guests is available upon request",
        "location": [
            52.200187,
            0.126407
        ],
        "name": "the gandhi",
        "phone": "01223353942",
        "postcode": "cb21dp",
        "pricerange": "cheap",
        "type": "restaurant"
    },
    {
        "address": "191 Histon Road Chesterton",
        "area": "north",
        "food": "chinese",
        "id": "19265",
        "introduction": "the golden wok serves a variety of traditional chinese meals including sweet and sour dishes as well as rice and noodles",
        "location": [
            52.220757,
            0.111564
        ],
        "name": "golden wok",
        "phone": "01223350688",
        "postcode": "cb43hl",
        "pricerange": "moderate",
        "type": "restaurant"
    },
    {
        "address": "205 Victoria Road Chesterton",
        "area": "west",
        "food": "indian",
        "id": "19267",
        "location": [
            52.215077,
            0.112421
        ],
        "name": "meghna",
        "phone": "01223727410",
        "postcode": "cb43lf",
        "pricerange": "moderate",
        "type": "restaurant"
    },
    {
        "address": "Hills Road City Centre",
        "area": "centre",
        "food": "indian",
        "id": "19220",
        "introduction": "the saffron brasserie serve a variety of dishes from their contemporary indian and bangladeshi menu. Catering for private parties of up to 100 guests is available upon request",
        "location": [
            52.196862,
            0.129248
        ],
        "name": "saffron brasserie",
        "phone": "01223354679",
        "postcode": "cb21la",
        "pricerange": "expensive",
        "type": "restaurant"
    },
    {
        "address": "Thompsons Lane Fen Ditton",
        "area": "centre",
        "food": "mediterranean",
        "id": "19268",
        "location": [
            52.210013,
            0.118007
        ],
        "name": "la mimosa",
        "phone": "01223362525",
        "postcode": "cb58aq",
        "pricerange": "expensive",
        "type": "restaurant"
    },
    {
        "address": "39 Burleigh Street City Centre",
        "area": "centre",
        "food": "chinese",
        "id": "19173",
        "introduction": "shanghai family restaurant comprises a french cafe on the lower level and a chinese restaurant upstairs",
        "location": [
            52.206111,
            0.132969
        ],
        "name": "shanghai family restaurant",
        "phone": "01223301761",
        "postcode": "cb11dg",
        "pricerange": "moderate",
        "type": "restaurant"
    },
    {
        "address": "The Little Rose 37 Trumpington Street",
        "area": "centre",
        "food": "seafood",
        "id": "19223",
        "introduction": "using the freshest seafood from the loch of the same name, loch fyne restaurants serve a variety of shellfish and smoked fish all of which are complimented by an extensive wine list. Non-seafood dishes are also available",
        "location": [
            52.200693,
            0.119744
        ],
        "name": "loch fyne",
        "phone": "01223362433",
        "postcode": "cb21qy",
        "pricerange": "expensive",
        "type": "restaurant"
    },
    {
        "address": "3 - 5 Millers Yard Mill Lane",
        "area": "centre",
        "food": "indian",
        "id": "15275",
        "introduction": "",
        "location": [
            52.20143,
            0.11664
        ],
        "name": "mahal of cambridge",
        "phone": "01223360409",
        "postcode": "cb21rq",
        "pricerange": "cheap",
        "signature": "chicken tikka masala",
        "type": "restaurant"
    },
    {
        "address": "Jesus Lane Fen Ditton",
        "area": "centre",
        "food": "italian",
        "id": "19269",
        "introduction": "the simple menu and kitchen concept at pizza express has retained its freshly made ideal, and you can still watch your pizza being prepared for you. This branch has live jazz music",
        "location": [
            52.208252,
            0.119957
        ],
        "name": "pizza express Fen Ditton",
        "phone": "01223324033",
        "postcode": "cb58ba",
        "pricerange": "moderate",
        "type": "restaurant"
    },
    {
        "address": "35 Newnham Road Newnham",
        "area": "west",
        "food": "thai",
        "id": "19256",
        "introduction": "sala thong serves a variety of thai dishes at their restaurant catering for private parties of up to 40 guests is available upon request",
        "location": [
            52.199012,
            0.113196
        ],
        "name": "sala thong",
        "phone": "01223323178",
        "postcode": "cb39ey",
        "pricerange": "expensive",
        "type": "restaurant"
    },
    {
        "address": "Cambridge City Football Club Milton Road Chesterton",
        "area": "north",
        "id": "19262",
        "introduction": "located in cambridge city football club, city stop restaurant serve a variety of english and italian dishes as well as offering a selection of vegetarian options catering for corporate events and private parties of up to 100 guests is available upon request.",
        "location": [
            52.215157,
            0.125015
        ],
        "name": "city stop restaurant",
        "phone": "01223363270",
        "postcode": "cb41uy",
        "pricerange": "expensive",
        "food": "european",
        "type": "restaurant"
    },
    {
        "address": "169 High Street Chesterton Chesterton",
        "area": "north",
        "food": "asian oriental",
        "id": "19261",
        "introduction": "saigon city serve vietnamese chinese and thai cuisine to eat in or take away",
        "location": [
            52.218164,
            0.143209
        ],
        "name": "saigon city",
        "phone": "01223356555",
        "postcode": "cb41nl",
        "pricerange": "expensive",
        "type": "restaurant"
    },
    {
        "address": "10 Homerton Street City Centre",
        "area": "south",
        "food": "chinese",
        "id": "19246",
        "introduction": "peking resturant cook from fresh ingredients. they specialise in sichuan and hunan dishes",
        "location": [
            52.189484,
            0.135465
        ],
        "name": "peking restaurant",
        "phone": "01223354755",
        "postcode": "cb28nx",
        "pricerange": "expensive",
        "type": "restaurant"
    },
    {
        "address": "Cambridge Leisure Park Clifton Way Cherry Hinton",
        "area": "south",
        "food": "italian",
        "id": "19195",
        "introduction": "frankie and bennys has a traditional 1950s new york feel to it with its original family photographs, traditional wooden furniture and period music. They serve a wide range of authentic american and italian dishes.",
        "location": [
            52.190176,
            0.13699
        ],
        "name": "frankie and bennys",
        "phone": "01223412430",
        "postcode": "cb17dy",
        "pricerange": "expensive",
        "type": "restaurant"
    },
    {
        "address": "Hotel Felix Whitehouse Lane Huntingdon Road",
        "area": "west",
        "food": "british",
        "id": "7492",
        "introduction": "Critically acclaimed food in luxurious and stylish surroundings, overlooking the hotels lush gardens.",
        "location": [
            52.22414,
            0.09194
        ],
        "name": "graffiti",
        "phone": "01223277977",
        "postcode": "cb30lx",
        "pricerange": "expensive",
        "signature": "panfried fillet of brill tempura of langoustine crushed garden peas shellfish basil nage",
        "type": "restaurant"
    },
    {
        "address": "31 Newnham Road Newnham",
        "area": "west",
        "food": "indian",
        "id": "19254",
        "introduction": "indian house serve a variety of indian dishes to eat in or take away they also have a selection of english dishes on their menu",
        "location": [
            52.199012,
            0.113196
        ],
        "name": "india house",
        "phone": "01223461661",
        "postcode": "cb39ey",
        "pricerange": "expensive",
        "type": "restaurant"
    },
    {
        "address": "Cambridge Lodge Hotel 139 Huntingdon Road City Centre",
        "area": "west",
        "food": "european",
        "id": "19252",
        "introduction": "located in the cambridge lodge hotel, this restaurant serves a variety of european and vegetarian dishes and can cater for private parties of up to 20 guests upon request.",
        "location": [
            52.217736,
            0.102505
        ],
        "name": "cambridge lodge restaurant",
        "phone": "01223355166",
        "postcode": "cb30dq",
        "pricerange": "expensive",
        "type": "restaurant"
    },
    {
        "address": "Grafton Hotel 619 Newmarket Road Fen Ditton",
        "area": "east",
        "food": "british",
        "id": "19271",
        "introduction": "located in the grafton hotel this restaurant serves a variety of english and vegetarian dishes from their a la carte and carvery menu. They also have a bar area",
        "location": [
            52.212992,
            0.157569
        ],
        "name": "grafton hotel restaurant",
        "phone": "01223241387",
        "postcode": "cb58pa",
        "pricerange": "expensive",
        "type": "restaurant"
    },
    {
        "address": "66 Chesterton Road Chesterton",
        "area": "north",
        "food": "chinese",
        "id": "19258",
        "introduction": "the hotpot serves a variety of chinese dishes at their restaurant and can cater for private parties of up to five five guests upon request",
        "location": [
            52.214531,
            0.127298
        ],
        "name": "the hotpot",
        "phone": "01223366552",
        "postcode": "cb41ep",
        "pricerange": "expensive",
        "type": "restaurant"
    },
    {
        "address": "Quayside Off Bridge Street",
        "area": "centre",
        "food": "modern european",
        "id": "7236",
        "introduction": "",
        "location": [
            52.20984,
            0.11793
        ],
        "name": "the river bar steakhouse and grill",
        "phone": "01223307030",
        "postcode": "cb58aq",
        "pricerange": "cheap",
        "signature": "lobster mac and cheese",
        "type": "restaurant"
    },
    {
        "address": "54 King Street City Centre",
        "area": "centre",
        "food": "italian",
        "id": "19176",
        "introduction": "clowns cafe serve a variety of drinks as well as italian dishes such as pasta ciabatta and salads",
        "location": [
            52.207312,
            0.124201
        ],
        "name": "clowns cafe",
        "phone": "01223355711",
        "postcode": "cb11ln",
        "pricerange": "expensive",
        "type": "restaurant"
    },
    {
        "address": "30 Bridge Street City Centre",
        "area": "centre",
        "food": "turkish",
        "id": "19232",
        "introduction": "anatolia is a basement restaurant that serves a variety of turkish and vegetarian dishes and cater for private parties of up to 80 guests upon request",
        "location": [
            52.209632,
            0.117213
        ],
        "name": "anatolia",
        "phone": "01223362372",
        "postcode": "cb21uj",
        "pricerange": "moderate",
        "type": "restaurant"
    },
    {
        "address": "8 Norfolk Street City Centre",
        "area": "centre",
        "food": "indian",
        "id": "19187",
        "location": [
            52.204609,
            0.137976
        ],
        "name": "panahar",
        "phone": "01223355012",
        "postcode": "cb12lf",
        "pricerange": "expensive",
        "type": "restaurant"
    },
    {
        "address": "Napier Street City Centre",
        "area": "centre",
        "food": "chinese",
        "id": "19174",
        "introduction": "tang chinese is a buffet restaurant and bar serving a variety of dishes for lunch and dinner there is also a takeaway menu available",
        "location": [
            52.207702,
            0.133982
        ],
        "name": "tang chinese",
        "phone": "01223357187",
        "postcode": "cb11hr",
        "pricerange": "expensive",
        "type": "restaurant"
    },
    {
        "address": "34 - 35 Green Street",
        "area": "centre",
        "food": "gastropub",
        "id": "12482",
        "introduction": "slug lettuce is a premium high street bar that serves a wide range of restaurant quality food to suit all occasions and appetites.",
        "location": [
            52.20683,
            0.1192
        ],
        "name": "the slug and lettuce",
        "postcode": "cb23ju",
        "pricerange": "expensive",
        "type": "restaurant"
    },
    {
        "address": "5 Jordans Yard Bridge Street City Centre",
        "area": "centre",
        "food": "indian",
        "id": "19231",
        "introduction": "curry king serve a variety of indian dishes to eat in or take away catering for private parties of up to 40 guests is available upon request",
        "location": [
            52.209003,
            0.118661
        ],
        "name": "curry king",
        "phone": "01223324351",
        "postcode": "cb21ug",
        "pricerange": "expensive",
        "type": "restaurant"
    },
    {
        "address": "Huntingdon Road City Centre",
        "area": "west",
        "food": "british",
        "id": "19251",
        "introduction": "",
        "location": [
            52.214201,
            0.108588
        ],
        "name": "travellers rest",
        "phone": "01223276182",
        "postcode": "cb30df",
        "pricerange": "expensive",
        "type": "restaurant"
    },
    {
        "address": "106 Mill Road City Centre",
        "area": "centre",
        "food": "indian",
        "id": "19184",
        "introduction": "curry queen is the most popular indian restaurant in cambridge serving good indian cuisine including all the usual dishes",
        "location": [
            52.199332,
            0.138395
        ],
        "name": "curry queen",
        "phone": "01223351027",
        "postcode": "cb12bd",
        "pricerange": "expensive",
        "type": "restaurant"
    },
    {
        "address": "290 Mill Road City Centre",
        "area": "east",
        "food": "gastropub",
        "id": "19190",
        "location": [
            52.196967,
            0.149286
        ],
        "name": "royal standard",
        "phone": "01223247877",
        "postcode": "cb13nl",
        "pricerange": "expensive",
        "type": "restaurant"
    },
    {
        "address": "7 Barnwell Road Fen Ditton",
        "area": "east",
        "food": "indian",
        "id": "19274",
        "introduction": "rajmahal serves traditional indian cuisine accomapnied by a broad wine list with beers and spirits also available",
        "location": [
            52.211144,
            0.163247
        ],
        "name": "rajmahal",
        "phone": "01223244955",
        "postcode": "cb58rg",
        "pricerange": "moderate",
        "type": "restaurant"
    },
    {
        "address": "21 Burleigh Street City Centre",
        "area": "centre",
        "food": "chinese",
        "id": "19172",
        "location": [
            52.206111,
            0.132969
        ],
        "name": "hk fusion",
        "phone": "01223355909",
        "postcode": "cb11dg",
        "pricerange": "expensive",
        "type": "restaurant"
    },
    {
        "address": "King Street City Centre",
        "area": "centre",
        "food": "turkish",
        "id": "19178",
        "introduction": "efes restaurant serve a variety of turkish dishes including kebabs in truly authentic surroundings.",
        "location": [
            52.207312,
            0.124201
        ],
        "name": "efes restaurant",
        "phone": "01223500005",
        "postcode": "cb11ln",
        "pricerange": "moderate",
        "type": "restaurant"
    },
    {
        "address": "Regent Street City Centre",
        "area": "centre",
        "food": "north american",
        "id": "19209",
        "introduction": "gourmet burger kitchen has a trendy interior and, although a bit more expensive than the average high street burger joint, the delicious burgers and other dishes are huge and freshly prepared with large side orders to match. Catering for vegetarians is provided",
        "location": [
            52.20103,
            0.126023
        ],
        "name": "gourmet burger kitchen",
        "phone": "01223312598",
        "postcode": "cb21ab",
        "pricerange": "expensive",
        "type": "restaurant"
    },
    {
        "address": "12 Market Hill City Centre",
        "area": "centre",
        "food": "italian",
        "id": "19239",
        "introduction": "don pasquale pizzeria serves an extensive range of pizzas and italian dishes including pasta as well as a selection of beverages. Catering for private parties of up to 80 guests is available upon request",
        "location": [
            52.205442,
            0.119706
        ],
        "name": "don pasquale pizzeria",
        "phone": "01223350106",
        "postcode": "cb23nj",
        "pricerange": "expensive",
        "type": "restaurant"
    },
    {
        "address": "1 Kings Parade",
        "area": "centre",
        "food": "british",
        "id": "6941",
        "introduction": "",
        "location": [
            52.20439,
            0.11784
        ],
        "name": "the cambridge chop house",
        "phone": "01223359506",
        "postcode": "cb21sj",
        "pricerange": "expensive",
        "signature": "lamb barnsley chop potato and garlic bake greens and gravy",
        "type": "restaurant"
    },
    {
        "address": "52 Mill Road City Centre",
        "area": "centre",
        "food": "asian oriental",
        "id": "19181",
        "introduction": "kymmoy is a noodle bar serving a wide variety of chinese thai cuisine for lunch and dinner",
        "location": [
            52.200422,
            0.135784
        ],
        "name": "kymmoy",
        "phone": "01223311911",
        "postcode": "cb12as",
        "pricerange": "expensive",
        "type": "restaurant"
    },
    {
        "address": "43 High Street Cherry Hinton Cherry Hinton",
        "area": "east",
        "food": "indian",
        "id": "19198",
        "location": [
            52.186739,
            0.173048
        ],
        "name": "sitar tandoori",
        "phone": "01223249955",
        "postcode": "cb19hx",
        "pricerange": "expensive",
        "type": "restaurant"
    },
    {
        "address": "84 Regent Street City Centre",
        "area": "centre",
        "food": "mediterranean",
        "id": "19217",
        "introduction": "shiraz serves traditional mediterranean cuisine accompanied by an extensive wine list with beers and spirits also available",
        "location": [
            52.200187,
            0.126407
        ],
        "name": "shiraz restaurant",
        "phone": "01223307581",
        "postcode": "cb21dp",
        "pricerange": "expensive",
        "type": "restaurant"
    },
    {
        "address": "Midsummer Common",
        "area": "centre",
        "food": "british",
        "id": "508",
        "introduction": "",
        "location": [
            52.21251,
            0.12774
        ],
        "name": "midsummer house restaurant",
        "phone": "01223369299",
        "postcode": "cb41ha",
        "pricerange": "expensive",
        "signature": "seared scallops with truffle apple and celeriac",
        "type": "restaurant"
    },
    {
        "address": "Bridge Street City Centre",
        "area": "centre",
        "food": "french",
        "id": "19230",
        "introduction": "cote is a modern french bistro offering some of the classic and simple favourites of french cuisine",
        "location": [
            52.209028,
            0.118296
        ],
        "name": "cote",
        "phone": "01223311053",
        "postcode": "cb21uf",
        "pricerange": "expensive",
        "type": "restaurant"
    },
    {
        "address": "32 Bridge Street City Centre",
        "area": "centre",
        "food": "italian",
        "id": "19234",
        "introduction": "caffe uno is a chain of cafe style restaurants that offer a wide selection of meals and snacks to suit any time of the day including an extensive breakfast menu and choice of hot or cold drinks",
        "location": [
            52.209632,
            0.117213
        ],
        "name": "caffe uno",
        "phone": "01223448620",
        "postcode": "cb21uj",
        "pricerange": "expensive",
        "type": "restaurant"
    },
    {
        "address": "17 Hills Road City Centre",
        "area": "centre",
        "food": "chinese",
        "id": "19222",
        "introduction": "sesame restaurant and bar offers a wide variety of traditional chinese cuisine for lunch or dinner with wifi access and a television screen in the basement",
        "location": [
            52.197154,
            0.129511
        ],
        "name": "sesame restaurant and bar",
        "phone": "01223358899",
        "postcode": "cb21nw",
        "pricerange": "expensive",
        "type": "restaurant"
    },
    {
        "address": "24 Green Street City Centre",
        "area": "centre",
        "food": "thai",
        "id": "19236",
        "introduction": "bangkok city serve a variety of authentic dishes to eat in or take away",
        "location": [
            52.206504,
            0.119157
        ],
        "name": "bangkok city",
        "phone": "01223354382",
        "postcode": "cb23jx",
        "pricerange": "expensive",
        "type": "restaurant"
    }
]
